name,latitude,longitude,demand,status,group,depot
"Karlshamn",56.1706904,14.8585045,0,"inactive",-1,true
"Sölvesborg",56.0522417,14.5830589,40,"active",NULL
"Olofström",56.2772118,14.5289672,30,"active",NULL
"Ronneby",56.210702,15.2741726,25,"active",NULL
"Karlskrona",56.1627312,15.5846371,45,"active",NULL